{
  "Leonardo da Vinci": { "lat": 43.77, "lng": 11.25, "location": "Florence, Italy" },
  "Michelangelo": { "lat": 41.90, "lng": 12.49, "location": "Rome, Italy" },
  "Raphael": { "lat": 41.90, "lng": 12.49, "location": "Rome, Italy" },
  "Sandro Botticelli": { "lat": 43.77, "lng": 11.25, "location": "Florence, Italy" },
  "Titian": { "lat": 45.44, "lng": 12.34, "location": "Venice, Italy" },
  "Caravaggio": { "lat": 41.90, "lng": 12.49, "location": "Rome, Italy" },
  "Tintoretto": { "lat": 45.44, "lng": 12.34, "location": "Venice, Italy" },
  "Paolo Veronese": { "lat": 45.44, "lng": 12.34, "location": "Venice, Italy" },
  "Giotto": { "lat": 43.77, "lng": 11.25, "location": "Florence, Italy" },
  "Fra Angelico": { "lat": 43.77, "lng": 11.25, "location": "Florence, Italy" },
  "Masaccio": { "lat": 43.77, "lng": 11.25, "location": "Florence, Italy" },
  "Piero della Francesca": { "lat": 43.46, "lng": 12.12, "location": "Sansepolcro, Italy" },
  "Giovanni Bellini": { "lat": 45.44, "lng": 12.34, "location": "Venice, Italy" },
  "Andrea Mantegna": { "lat": 45.16, "lng": 10.79, "location": "Mantua, Italy" },
  "Correggio": { "lat": 44.70, "lng": 10.63, "location": "Parma, Italy" },
  "Jan van Eyck": { "lat": 51.21, "lng": 3.22, "location": "Bruges, Flanders" },
  "Hieronymus Bosch": { "lat": 51.69, "lng": 5.30, "location": "'s-Hertogenbosch, Netherlands" },
  "Albrecht Dürer": { "lat": 49.45, "lng": 11.08, "location": "Nuremberg, Germany" },
  "Hans Holbein the Younger": { "lat": 51.51, "lng": -0.13, "location": "London, England" },
  "Pieter Bruegel the Elder": { "lat": 50.85, "lng": 4.35, "location": "Brussels, Flanders" },
  "Lucas Cranach the Elder": { "lat": 51.87, "lng": 12.64, "location": "Wittenberg, Germany" },
  "Rembrandt": { "lat": 52.37, "lng": 4.89, "location": "Amsterdam, Netherlands" },
  "Johannes Vermeer": { "lat": 52.01, "lng": 4.36, "location": "Delft, Netherlands" },
  "Peter Paul Rubens": { "lat": 51.22, "lng": 4.40, "location": "Antwerp, Flanders" },
  "Diego Velázquez": { "lat": 40.42, "lng": -3.70, "location": "Madrid, Spain" },
  "Nicolas Poussin": { "lat": 41.90, "lng": 12.49, "location": "Rome, Italy" },
  "Georges de La Tour": { "lat": 48.69, "lng": 6.18, "location": "Lunéville, France" },
  "Frans Hals": { "lat": 52.38, "lng": 4.64, "location": "Haarlem, Netherlands" },
  "Jacob van Ruisdael": { "lat": 52.38, "lng": 4.64, "location": "Haarlem, Netherlands" },
  "Artemisia Gentileschi": { "lat": 40.85, "lng": 14.27, "location": "Naples, Italy" },
  "Antoine Watteau": { "lat": 48.86, "lng": 2.35, "location": "Paris, France" },
  "François Boucher": { "lat": 48.86, "lng": 2.35, "location": "Paris, France" },
  "Jean-Honoré Fragonard": { "lat": 48.86, "lng": 2.35, "location": "Paris, France" },
  "Canaletto": { "lat": 45.44, "lng": 12.34, "location": "Venice, Italy" },
  "Giovanni Battista Tiepolo": { "lat": 45.44, "lng": 12.34, "location": "Venice, Italy" },
  "Thomas Gainsborough": { "lat": 51.51, "lng": -0.13, "location": "London, England" },
  "Joshua Reynolds": { "lat": 51.51, "lng": -0.13, "location": "London, England" },
  "Francisco Goya": { "lat": 40.42, "lng": -3.70, "location": "Madrid, Spain" },
  "Jacques-Louis David": { "lat": 48.86, "lng": 2.35, "location": "Paris, France" },
  "William Hogarth": { "lat": 51.51, "lng": -0.13, "location": "London, England" },
  "Eugène Delacroix": { "lat": 48.86, "lng": 2.35, "location": "Paris, France" },
  "Caspar David Friedrich": { "lat": 54.09, "lng": 13.38, "location": "Greifswald, Germany" },
  "J.M.W. Turner": { "lat": 51.51, "lng": -0.13, "location": "London, England" },
  "John Constable": { "lat": 51.51, "lng": -0.13, "location": "London, England" },
  "Théodore Géricault": { "lat": 48.86, "lng": 2.35, "location": "Paris, France" },
  "Thomas Cole": { "lat": 42.23, "lng": -73.86, "location": "Catskill, New York, USA" },
  "Frederic Edwin Church": { "lat": 42.22, "lng": -73.87, "location": "Hudson, New York, USA" },
  "Gustave Courbet": { "lat": 48.86, "lng": 2.35, "location": "Paris, France" },
  "Jean-François Millet": { "lat": 48.44, "lng": 2.60, "location": "Barbizon, France" },
  "Jean-Baptiste-Camille Corot": { "lat": 48.86, "lng": 2.35, "location": "Paris, France" },
  "John Everett Millais": { "lat": 51.51, "lng": -0.13, "location": "London, England" },
  "Dante Gabriel Rossetti": { "lat": 51.51, "lng": -0.13, "location": "London, England" },
  "William Holman Hunt": { "lat": 51.51, "lng": -0.13, "location": "London, England" },
  "Claude Monet": { "lat": 49.08, "lng": 1.53, "location": "Giverny, France" },
  "Pierre-Auguste Renoir": { "lat": 48.86, "lng": 2.35, "location": "Paris, France" },
  "Edgar Degas": { "lat": 48.86, "lng": 2.35, "location": "Paris, France" },
  "Camille Pissarro": { "lat": 49.05, "lng": 2.08, "location": "Pontoise, France" },
  "Alfred Sisley": { "lat": 48.49, "lng": 2.70, "location": "Moret-sur-Loing, France" },
  "Berthe Morisot": { "lat": 48.86, "lng": 2.35, "location": "Paris, France" },
  "Mary Cassatt": { "lat": 48.86, "lng": 2.35, "location": "Paris, France" },
  "Frédéric Bazille": { "lat": 48.86, "lng": 2.35, "location": "Paris, France" },
  "Gustave Caillebotte": { "lat": 48.86, "lng": 2.35, "location": "Paris, France" },
  "Paul Cézanne": { "lat": 43.53, "lng": 5.45, "location": "Aix-en-Provence, France" },
  "Vincent van Gogh": { "lat": 43.68, "lng": 4.63, "location": "Arles, France" },
  "Paul Gauguin": { "lat": 48.86, "lng": 2.35, "location": "Paris, France" },
  "Georges Seurat": { "lat": 48.86, "lng": 2.35, "location": "Paris, France" },
  "Paul Signac": { "lat": 48.86, "lng": 2.35, "location": "Paris, France" },
  "Henri de Toulouse-Lautrec": { "lat": 48.86, "lng": 2.35, "location": "Paris, France" },
  "Édouard Vuillard": { "lat": 48.86, "lng": 2.35, "location": "Paris, France" },
  "Pierre Bonnard": { "lat": 48.86, "lng": 2.35, "location": "Paris, France" },
  "Pablo Picasso": { "lat": 48.86, "lng": 2.35, "location": "Paris, France" },
  "Henri Matisse": { "lat": 43.70, "lng": 7.27, "location": "Nice, France" },
  "Wassily Kandinsky": { "lat": 48.14, "lng": 11.58, "location": "Munich, Germany" },
  "Piet Mondrian": { "lat": 52.37, "lng": 4.89, "location": "Amsterdam, Netherlands" },
  "Paul Klee": { "lat": 46.95, "lng": 7.45, "location": "Bern, Switzerland" },
  "Salvador Dalí": { "lat": 42.27, "lng": 3.16, "location": "Figueres, Spain" },
  "Joan Miró": { "lat": 41.39, "lng": 2.17, "location": "Barcelona, Spain" },
  "René Magritte": { "lat": 50.85, "lng": 4.35, "location": "Brussels, Belgium" },
  "Edvard Munch": { "lat": 59.91, "lng": 10.75, "location": "Oslo, Norway" },
  "Gustav Klimt": { "lat": 48.21, "lng": 16.37, "location": "Vienna, Austria" },
  "Egon Schiele": { "lat": 48.21, "lng": 16.37, "location": "Vienna, Austria" },
  "Ernst Ludwig Kirchner": { "lat": 54.09, "lng": 12.13, "location": "Dresden, Germany" },
  "Emil Nolde": { "lat": 52.52, "lng": 13.41, "location": "Berlin, Germany" },
  "Franz Marc": { "lat": 48.14, "lng": 11.58, "location": "Munich, Germany" },
  "Amedeo Modigliani": { "lat": 48.86, "lng": 2.35, "location": "Paris, France" },
  "Marc Chagall": { "lat": 48.86, "lng": 2.35, "location": "Paris, France" },
  "Chaïm Soutine": { "lat": 48.86, "lng": 2.35, "location": "Paris, France" },
  "James Abbott McNeill Whistler": { "lat": 51.51, "lng": -0.13, "location": "London, England" },
  "Winslow Homer": { "lat": 43.55, "lng": -70.32, "location": "Prouts Neck, Maine, USA" },
  "Thomas Eakins": { "lat": 39.95, "lng": -75.17, "location": "Philadelphia, USA" },
  "John Singer Sargent": { "lat": 51.51, "lng": -0.13, "location": "London, England" },
  "Edward Hopper": { "lat": 40.71, "lng": -74.01, "location": "New York, USA" },
  "Jackson Pollock": { "lat": 40.71, "lng": -74.01, "location": "New York, USA" },
  "Willem de Kooning": { "lat": 40.71, "lng": -74.01, "location": "New York, USA" },
  "Mark Rothko": { "lat": 40.71, "lng": -74.01, "location": "New York, USA" },
  "Georgia O'Keeffe": { "lat": 35.67, "lng": -105.96, "location": "Santa Fe, New Mexico, USA" },
  "Andrew Wyeth": { "lat": 39.87, "lng": -75.53, "location": "Chadds Ford, Pennsylvania, USA" },
  "Grant Wood": { "lat": 41.98, "lng": -91.67, "location": "Cedar Rapids, Iowa, USA" },
  "Norman Rockwell": { "lat": 42.45, "lng": -73.26, "location": "Stockbridge, Massachusetts, USA" },
  "Jean-Michel Basquiat": { "lat": 40.71, "lng": -74.01, "location": "New York, USA" },
  "Andy Warhol": { "lat": 40.71, "lng": -74.01, "location": "New York, USA" },
  "Jasper Johns": { "lat": 40.71, "lng": -74.01, "location": "New York, USA" },
  "Robert Rauschenberg": { "lat": 40.71, "lng": -74.01, "location": "New York, USA" },
  "Roy Lichtenstein": { "lat": 40.71, "lng": -74.01, "location": "New York, USA" },
  "Diego Rivera": { "lat": 19.43, "lng": -99.13, "location": "Mexico City, Mexico" },
  "Frida Kahlo": { "lat": 19.35, "lng": -99.16, "location": "Coyoacán, Mexico City, Mexico" },
  "José Clemente Orozco": { "lat": 20.67, "lng": -103.35, "location": "Guadalajara, Mexico" },
  "David Alfaro Siqueiros": { "lat": 19.43, "lng": -99.13, "location": "Mexico City, Mexico" },
  "Rufino Tamayo": { "lat": 19.43, "lng": -99.13, "location": "Mexico City, Mexico" },
  "Katsushika Hokusai": { "lat": 35.68, "lng": 139.69, "location": "Edo (Tokyo), Japan" },
  "Utagawa Hiroshige": { "lat": 35.68, "lng": 139.69, "location": "Edo (Tokyo), Japan" },
  "Sesshū Tōyō": { "lat": 34.18, "lng": 131.47, "location": "Yamaguchi, Japan" },
  "Shen Zhou": { "lat": 31.30, "lng": 120.59, "location": "Suzhou, China" },
  "Tang Yin": { "lat": 31.30, "lng": 120.59, "location": "Suzhou, China" },
  "Qi Baishi": { "lat": 39.90, "lng": 116.40, "location": "Beijing, China" },
  "Xu Beihong": { "lat": 39.90, "lng": 116.40, "location": "Beijing, China" },
  "Édouard Manet": { "lat": 48.86, "lng": 2.35, "location": "Paris, France" },
  "El Greco": { "lat": 39.86, "lng": -4.02, "location": "Toledo, Spain" },
  "Albrecht Altdorfer": { "lat": 49.02, "lng": 12.10, "location": "Regensburg, Germany" },
  "Hans Memling": { "lat": 51.21, "lng": 3.22, "location": "Bruges, Flanders" },
  "Rogier van der Weyden": { "lat": 50.85, "lng": 4.35, "location": "Brussels, Flanders" },
  "Donatello": { "lat": 43.77, "lng": 11.25, "location": "Florence, Italy" },
  "Gustave Moreau": { "lat": 48.86, "lng": 2.35, "location": "Paris, France" },
  "Odilon Redon": { "lat": 48.86, "lng": 2.35, "location": "Paris, France" },
  "James Ensor": { "lat": 51.23, "lng": 2.93, "location": "Ostend, Belgium" },
  "Fernand Léger": { "lat": 48.86, "lng": 2.35, "location": "Paris, France" },
  "Georges Braque": { "lat": 48.86, "lng": 2.35, "location": "Paris, France" },
  "Marcel Duchamp": { "lat": 40.71, "lng": -74.01, "location": "New York, USA" },
  "Max Ernst": { "lat": 48.86, "lng": 2.35, "location": "Paris, France" },
  "Giorgio de Chirico": { "lat": 41.90, "lng": 12.49, "location": "Rome, Italy" },
  "Kazimir Malevich": { "lat": 55.75, "lng": 37.62, "location": "Moscow, Russia" },
  "El Lissitzky": { "lat": 55.75, "lng": 37.62, "location": "Moscow, Russia" },
  "Ilya Repin": { "lat": 59.93, "lng": 30.32, "location": "St. Petersburg, Russia" },
  "Ivan Aivazovsky": { "lat": 59.93, "lng": 30.32, "location": "St. Petersburg, Russia" },
  "Joaquín Sorolla": { "lat": 39.47, "lng": -0.38, "location": "Valencia, Spain" },
  "Akseli Gallen-Kallela": { "lat": 60.17, "lng": 24.94, "location": "Helsinki, Finland" },
  "Carl Larsson": { "lat": 59.33, "lng": 18.07, "location": "Stockholm, Sweden" },
  "Vilhelm Hammershøi": { "lat": 55.68, "lng": 12.57, "location": "Copenhagen, Denmark" },
  "Lucian Freud": { "lat": 51.51, "lng": -0.13, "location": "London, England" },
  "Francis Bacon": { "lat": 51.51, "lng": -0.13, "location": "London, England" },
  "David Hockney": { "lat": 51.51, "lng": -0.13, "location": "London, England" },
  "Gerhard Richter": { "lat": 50.94, "lng": 6.96, "location": "Cologne, Germany" },
  "Anselm Kiefer": { "lat": 48.86, "lng": 2.35, "location": "Paris, France" },
  "Fernando Botero": { "lat": 6.25, "lng": -75.56, "location": "Medellín, Colombia" },
  "Tarsila do Amaral": { "lat": -23.55, "lng": -46.63, "location": "São Paulo, Brazil" },
  "Wifredo Lam": { "lat": 23.11, "lng": -82.37, "location": "Havana, Cuba" },
  "Roberto Matta": { "lat": 48.86, "lng": 2.35, "location": "Paris, France" },
  "Yayoi Kusama": { "lat": 35.68, "lng": 139.69, "location": "Tokyo, Japan" },
  "Takashi Murakami": { "lat": 35.68, "lng": 139.69, "location": "Tokyo, Japan" },
  "Ai Weiwei": { "lat": 39.90, "lng": 116.40, "location": "Beijing, China" },
  "M.F. Husain": { "lat": 19.08, "lng": 72.88, "location": "Mumbai, India" },
  "Amrita Sher-Gil": { "lat": 28.61, "lng": 77.21, "location": "New Delhi, India" }
}
